{"type":"FeatureCollection","features":[{"type":"Feature","properties":{"name":"Kew Gardens","marker-color":"#228B22","marker-size":"medium","address":"2075 Queen St E, Toronto, ON M4E 2N8","category":"Parks/Greenspaces"},"geometry":{"coordinates":[-79.2983201368972,43.66813122370206],"type":"Point"}},{"type":"Feature","properties":{"name":"Boardwalk Cafe","marker-color":"#6F4E37","marker-size":"medium","address":"1681 Lake Shore Blvd E, Toronto, ON M4L 3W6","category":"Coffee"},"geometry":{"coordinates":[-79.30992595839143,43.66274016504278],"type":"Point"}},{"type":"Feature","properties":{"name":"Bud's Coffee","address":"1966 1/2, Queen St E, Toronto, ON M4L 1H8","category":"Coffee","marker-size":"medium","marker-color":"#6F4E37"},"geometry":{"coordinates":[-79.30180541949895,43.669788246895365],"type":"Point"}},{"type":"Feature","properties":{"name":"Nana's Creperie","address":"1917 Queen St E, Toronto, ON M4L 1H3","category":"Coffee","marker-size":"medium","marker-color":"#6F4E37"},"geometry":{"coordinates":[-79.30421301877907,43.668977825295286],"type":"Point"}},{"type":"Feature","properties":{"name":"What a Bagel","address":"1984 Queen St E, Toronto, ON M4L 1J2","category":"Coffee","marker-size":"medium","marker-color":"#6F4E37"},"geometry":{"coordinates":[-79.30063116268842,43.67002621229253],"type":"Point"}},{"type":"Feature","properties":{"name":"Casa Mia","address":"1985 Queen St E, Toronto, ON M4L 3T2","category":"Coffee","marker-size":"medium","marker-color":"#6F4E37"},"geometry":{"coordinates":[-79.30018219530845,43.669875177424814],"type":"Point"}},{"type":"Feature","properties":{"name":"ESPRO Coffee Bar","address":"2102 Queen St E, Toronto, ON M4E 1E2","category":"Coffee","marker-size":"medium","marker-color":"#6F4E37"},"geometry":{"coordinates":[-79.29561288733538,43.67112119964028],"type":"Point"}},{"type":"Feature","properties":{"name":"The Beacher Cafe","address":"2162 Queen St E, Toronto, ON M4E 1G7","category":"Coffee","marker-size":"medium","marker-color":"#6F4E37"},"geometry":{"coordinates":[-79.29124252556564,43.67203105584534],"type":"Point"}},{"type":"Feature","properties":{"name":"Judy's Beach Cafe","address":"2188 Queen St E, Toronto, ON M4E 1E6","category":"Coffee","marker-size":"medium","marker-color":"#6F4E37"},"geometry":{"coordinates":[-79.29036449557734,43.67217940890717],"type":"Point"}},{"type":"Feature","properties":{"name":"The Ashbridge Estate","marker-color":"#FFC000","address":"1444 Queen St E Suite 101, Toronto, ON M4L 1E1","category":"Landmark/Attraction","marker-size":"medium"},"geometry":{"coordinates":[-79.3227564439847,43.665306215442286],"type":"Point"}},{"type":"Feature","properties":{"name":"Woodbine Park Fountain","marker-color":"#FFC000","category":"Landmark/Attraction","address":"Toronto, ON M4L 3Z8","marker-size":"medium"},"geometry":{"coordinates":[-79.31153255214721,43.663996524487914],"type":"Point"}},{"type":"Feature","properties":{"name":"Owl Statue","marker-color":"#FFC000","address":"Toronto, ON M4L 1J1","category":"Landmark/Attraction","marker-size":"medium"},"geometry":{"coordinates":[-79.29855926789537,43.670256185829686],"type":"Point"}},{"type":"Feature","properties":{"name":"Kew Gardens","address":"63 Lee Ave, Toronto, ON M4E 2P1","marker-size":"medium","category":"Landmark/Attraction","marker-color":"#FFC000"},"geometry":{"coordinates":[-79.29771666518926,43.66949178830538],"type":"Point"}},{"type":"Feature","properties":{"address":"30 Lee Ave, Toronto, ON M4E 2N8","name":"The Gardener's Cottage – Kew Williams House","marker-color":"#FFC000","category":"Landmark/Attraction","marker-size":"medium"},"geometry":{"coordinates":[-79.29724979951204,43.66813797890205],"type":"Point"}},{"type":"Feature","properties":{"name":"Luvfy's Edge","address":"1675 Lake Shore Blvd E, Woodbine Ave, Toronto, ON M4L 3W6","marker-color":"#FFC000","category":"Landmark/Attraction","marker-size":"medium"},"geometry":{"coordinates":[-79.30213191604834,43.66477153089173],"type":"Point"}},{"type":"Feature","properties":{"name":"Glen Manor Bridge","address":"Glen Manor Drive Bridge, Toronto, ON M4E 2X6","marker-color":"#FFC000","marker-size":"medium","category":"Landmark/Attraction"},"geometry":{"coordinates":[-79.29500987434034,43.67449023050389],"type":"Point"}},{"type":"Feature","properties":{"name":"Woodbine Park","address":"1695 Queen St E, Toronto, ON M4L 1G7","category":"Parks/Greenspaces","marker-size":"medium","marker-color":"#00A36C"},"geometry":{"coordinates":[-79.31364699039027,43.66406779813042],"type":"Point"}},{"type":"Feature","properties":{"name":"Woodbine Beach","address":"1675 Lake Shore Blvd E, Toronto, ON M4L 3W6 ","marker-color":"#00A36C","marker-size":"medium","category":"Parks/Greenspaces"},"geometry":{"coordinates":[-79.30717913789837,43.66147560847739],"type":"Point"}},{"type":"Feature","properties":{"name":"Pantry Park","marker-color":"#00A36C","marker-size":"medium","address":"70 Kewbeach Avenue, Toronto, Ontario M4L 0A7, Canada","category":"Parks/Greenspaces"},"geometry":{"coordinates":[-79.30199673921332,43.667276733033276],"type":"Point"}},{"type":"Feature","properties":{"name":"Ivan Forrest Gardens","marker-color":"#00A36C","marker-size":"medium","category":"Parks/Greenspaces","address":"131 Glen Manor Dr, Toronto, ON M4E 1J8"},"geometry":{"coordinates":[-79.29282932628448,43.67234270827191],"type":"Point"}},{"type":"Feature","properties":{"name":"Glen Stewart Ravine","marker-color":"#00A36C","marker-size":"medium","category":"Parks/Greenspaces","address":"Glen Stewart Ravine, Toronto, ON M4E 1P3"},"geometry":{"coordinates":[-79.29288424748353,43.67801936290451],"type":"Point"}},{"type":"Feature","properties":{"name":"Balmy Beach","marker-color":"#00A36C","marker-size":"medium","address":"Toronto, ON M4E 1A7","category":"Parks/Greenspaces"},"geometry":{"coordinates":[-79.2861752468176,43.66954215647357],"type":"Point"}},{"type":"Feature","properties":{"name":"Ashbridge’s Bay Volleyball Courts","marker-color":"#5D3FD3","marker-size":"medium","address":"Woodbine Beach","category":"Recreation"},"geometry":{"coordinates":[-79.30936333970212,43.66052928548203],"type":"Point"}},{"type":"Feature","properties":{"category":"Recreation","address":"1561 Lake Shore Blvd E, Toronto, ON M4L 3W6","marker-color":"#5D3FD3","marker-size":"medium","name":"Beaches Disc Golf Course "},"geometry":{"coordinates":[-79.31082726801986,43.66053849546452],"type":"Point"}},{"type":"Feature","properties":{"name":"Beach Community Edible Garden","address":"Toronto, ON M4L 3W6 ","category":"Recreation","marker-size":"medium","marker-color":"#5D3FD3"},"geometry":{"coordinates":[-79.30892497753273,43.658502423452575],"type":"Point"}},{"type":"Feature","properties":{"name":"Athletic Field","address":"Toronto, ON M4L 3R3","marker-color":"#5D3FD3","marker-size":"medium","category":"Recreation"},"geometry":{"coordinates":[-79.30188023980418,43.667866631513675],"type":"Point"}},{"type":"Feature","properties":{"address":"77 Kewbeach Ave, Toronto, ON M4L 0A7","name":"Kew Gardens Tennis Club","marker-color":"#5D3FD3","marker-size":"medium","category":"Recreation"},"geometry":{"coordinates":[-79.2999315426835,43.666304231451704],"type":"Point"}},{"type":"Feature","properties":{"name":"Kew Beach Lawn Bowling Club","marker-color":"#5D3FD3","marker-size":"medium","address":"12 Lee Ave, Toronto, ON M4E 2N9","category":"Recreation"},"geometry":{"coordinates":[-79.29710940159018,43.66695563636685],"type":"Point"}},{"type":"Feature","properties":{"address":"12 Lee Ave, Toronto, ON M4E 2N8","category":"Recreation","marker-size":"medium","marker-color":"#5D3FD3","name":"The Beaches Basketball Court"},"geometry":{"coordinates":[-79.29794780343575,43.66725888466652],"type":"Point"}},{"type":"Feature","properties":{"name":"Kew Gardens Artificial Ice Rink","address":"Toronto, ON M4E 2N8","marker-size":"medium","marker-color":"#5D3FD3","category":"Recreation"},"geometry":{"coordinates":[-79.2980763694688,43.66678235117564],"type":"Point"}},{"type":"Feature","properties":{"name":"Alex Christie Kiosk","address":"88 Lee Ave #48, Toronto, ON M4E 2P1","marker-color":"#5D3FD3","marker-size":"medium","category":"Recreation"},"geometry":{"coordinates":[-79.2985602828345,43.6692333982507],"type":"Point"}},{"type":"Feature","properties":{"name":"Kew Garden Playground","marker-color":"#5D3FD3","marker-size":"medium","address":"Toronto, ON M4L 3T2","category":"Recreation"},"geometry":{"coordinates":[-79.29978874239055,43.66947022785675],"type":"Point"}}]}